var cities = [
  {
    'name' : 'Delhi',
    'lat' : 28.644800,
    'lng' : 77.216721,
    'description' : "India's capital and political centre, Delhi, is known for its vivacious culture and aromatic delicacies.",
    'places' : [
      {
        'name' : 'Red Fort',
        'lat' : 28.6562,
        'lng' : 77.2410,
        'image' : 'images/cities/0/0.jpg',
        'description' : "The Red Fort is a historical fort in the city of Delhi in India. It was the main residence of the emperors of the Mughal dynasty for nearly 200 years.",
      }
    ]
  },
  {
    'name' : 'Mumbai',
    'lat' : 19.075984,
    'lng' : 72.877656,
    'description' : "Soothing breezes, breathtaking sea shore and spirited nightlife of the city makes it a popular tourist destination.",
    'places' : [

    ]
  },
  {
    'name' : 'Agra',
    'lat' : 27.176670,
    'lng' : 78.008075,
    'description' : "Architectural grandeur of the Taj Mahal draws tourists from all around the globe to this erstwhile city of the Mughals.",
    'places' : [

    ]
  },
  {
    'name' : 'Jaipur',
    'lat' : 26.912434,
    'lng' : 75.787271,
    'description' : "Experience the royal charisma of India, in the quaint 'Pink City'.",
    'places' : [

    ]
  },
  {
    'name' : 'Shimla',
    'lat' : 31.104814,
    'lng' : 77.173403,
    'description' : "'The Queen of Hills' impresses all with its panoramic views.",
    'places' : [

    ]
  },
  {
    'name' : 'Srinagar',
    'lat' : 34.083671,
    'lng' : 74.797282,
    'description' : "Serene Dal Lake, tranquil mountains and quiescent 'Shikaras' define this Paradise on Earth.",
    'places' : [

    ]
  },
  {
    'name' : 'Banglore',
    'lat' : 12.971599,
    'lng' : 77.594563,
    'description' : "'The Garden City' lure its visitors with relaxed ambiance and salutary climate.",
    'places' : [

    ]
  },
  {
    'name' : 'Chennai',
    'lat' : 13.082680,
    'lng' : 80.270718,
    'description' : "This metropolitan city is a perfect amalgamation of ethnicity and modernism.",
    'places' : [

    ]
  },
  {
    'name' : 'Goa',
    'lat' : 15.299326,
    'lng' : 74.123996,
    'description' : "Gorgeous beaches, sparkling waters and Goan cuisines are ideal to amuse any traveler.",
    'places' : [

    ]
  },
  {
    'name' : 'Ooty',
    'lat' : 11.406414,
    'lng' : 76.693244,
    'description' : "Picturesque tea gardens and the laid-back charm are key highlights of this hills station in South India.",
    'places' : [

    ]
  },
  {
    'name' : 'Darjeeling',
    'lat' : 27.036007,
    'lng' : 88.262675,
    'description' : "Popular for it eco-tourism, tea plantations and the Toy Train ride, Darjeeling is frequented by travelers.",
    'places' : [

    ]
  },

  {
    'name' : 'Kolkata',
    'lat' : 22.572646,
    'lng' : 88.363895,
    'description' : "Known as 'the Cultural Capital of India' and 'the City of Joy', Kolkata, mesmerizes all with its dynamism.",
    'places' : [

    ]
  },

  {
    'name' : 'Pune',
    'lat' : 18.520430,
    'lng' : 73.856744,
    'description' : "The city lures visitors with architectural relics of its glorious history.",
    'places' : [

    ]
  },


];
